[
    {
        "website": "https://sites.google.com/site/firstrobotics107", 
        "name": "Metal Flow / Tommy's Express Car Wash / Grand Valley State University / World Class Prototypes / Koops / Twisthink & Holland Christian High School", 
        "locality": "Holland", 
        "nickname": "Team R.O.B.O.T.I.C.S.", 
        "region": "Michigan", 
        "team_number": 107, 
        "location": "Holland, Michigan, USA", 
        "key": "frc107", 
        "country_name": "USA", 
        "motto": "Team R.O.B.O.T.I.C.S. ", 
        "rookie_year": 1997
    },
    {
        "website": "http://www.lightningrobotics.com/",
        "name": "BOSCH / Jabil / Schuler / Continental / Ford & Canton High School & Plymouth High School & Salem High School",
        "locality": "Canton",
        "nickname": "Lightning Robotics",
        "region": "Michigan",
        "team_number": 862,
        "location": "Canton, Michigan, USA",
        "key": "frc862",
        "country_name": "USA",
        "motto": "STRIKE : Student leadership Teamwork Resilience Inspiration Knowledge Engagement",
        "rookie_year": 2002
    },
    {
        "website": "http://www.chelsearobotics.org/", 
        "name": "FCA Foundation / Michigan Education Grant System / Lake Trust Foundation / Toyota / Chelsea Education Foundation / DCYI LLC / Bumble's Dry Goods / Mike's Home Repair / Ziel Industries / Kennedy Associates / Chelsea Tool & Chelsea High School", 
        "locality": "Chelsea", 
        "nickname": "Technical Difficulties", 
        "region": "Michigan", 
        "team_number": 1502, 
        "location": "Chelsea, Michigan, USA", 
        "key": "frc1502", 
        "country_name": "USA", 
        "motto": "We make easy things look difficult every day.", 
        "rookie_year": 2005
    }, 
    {
        "website": "http://first.ncresa.org/", 
        "name": "Newaygo County Regional Educational Service Agency/The Fremont Area Community Foundation/The Gerber Foundation/Kaydon Bearings/The people of Newaygo County & Newaygo County Career Tech Center", 
        "locality": "Fremont", 
        "nickname": "NC GEARS", 
        "region": "Michigan", 
        "team_number": 1918, 
        "location": "Fremont, Michigan, USA", 
        "key": "frc1918", 
        "country_name": "USA", 
        "motto": "Just Meshing Around ", 
        "rookie_year": 2006
    }, 
    {
        "website": "http:///www.the-charge.com", 
        "name": "The Dow Chemical Company / Nexteer / Dow Corning Corporation / FIRST of the Great Lakes Bay Region / Midland Public Schools / Michigan Baseball Foundation / Midland Steel & H.H. Dow High School", 
        "locality": "Midland", 
        "nickname": "The Charge", 
        "region": "Michigan", 
        "team_number": 2619, 
        "location": "Midland, Michigan, USA", 
        "key": "frc2619", 
        "country_name": "USA", 
        "motto": "Unleash Your Potential", 
        "rookie_year": 2008
    }, 
    {
        "website": "http:///teamdeltaforce.wordpress.com", 
        "name": "FOILS Friends of Inland Lakes Schools/State of Michigan/Tube Fab & Roman Engineering/Link Industries/FIRST in Michigan/Car Quest of Indian River/LaPeers Farm/Team R2S/Bunker Concrete & Inland Lakes High School", 
        "locality": "Indian River", 
        "nickname": "Delta Force", 
        "region": "Michigan", 
        "team_number": 3537, 
        "location": "Indian River, Michigan, USA", 
        "key": "frc3537", 
        "country_name": "USA", 
        "motto": "We Turn Robots On", 
        "rookie_year": 2011
    }, 
    {
        "website": "http://teampheonix3570.weebly.com/", 
        "name": "IAC-Alma / Gratiot Community Foundation / Anesthesia Associates / Garr Tool / Greater Gratiot  Development / Plasti-Paint, Inc / Alma Products / Agro-Culture Liquid Fertilizer & Alma Senior High School", 
        "locality": "Alma", 
        "nickname": "Pheonix", 
        "region": "Michigan", 
        "team_number": 3570, 
        "location": "Alma, Michigan, USA", 
        "key": "frc3570", 
        "country_name": "USA", 
        "motto": "Make it move", 
        "rookie_year": 2011
    }, 
    {
        "website": "http:///www.team3602.com", 
        "name": "Engineered Machined Products Inc / Community Foundation for Delta County / GFWC & Escanaba Area Public High School", 
        "locality": "Escanaba", 
        "nickname": "RoboMos", 
        "region": "Michigan", 
        "team_number": 3602, 
        "location": "Escanaba, Michigan, USA", 
        "key": "frc3602", 
        "country_name": "USA", 
        "motto": null, 
        "rookie_year": 2011
    }, 
    {
        "website": "http://www.firstinspires.org/", 
        "name": "TransCanada Corporation / Reed City Tool / H&R Screw / Logic Plus / Ventra Plastics & Reed City High School", 
        "locality": "Reed City", 
        "nickname": "Cyber Coyotes", 
        "region": "Michigan", 
        "team_number": 3603, 
        "location": "Reed City, Michigan, USA", 
        "key": "frc3603", 
        "country_name": "USA", 
        "motto": null, 
        "rookie_year": 2011
    }, 
    {
        "website": "http://www.petoskeypaladins.org", 
        "name": "Petoskey Harbor Springs Community Foundation / Noon Rotary / DTE Foundation / DCL / Bear River Electric / Circuit Controls Corp.  / Petoskey Plastics / Grannis Farley of Raymond James / Kilwins / Great Lakes Oral and Maxillofacial Surgery, P.C.  / Cosmetic Laser Surgery / Daifuku Webb & Petoskey High School", 
        "locality": "Petoskey", 
        "nickname": "Petoskey Paladins", 
        "region": "Michigan", 
        "team_number": 3618, 
        "location": "Petoskey, Michigan, USA", 
        "key": "frc3618", 
        "country_name": "USA", 
        "motto": "U-Knighting to build robots, friendships, and the future\u2026", 
        "rookie_year": 2011
    }, 
    {
        "website": "http:///www.creekrobotics.net", 
        "name": "FIRST-GLBR / Dow Chemical / The Kepler Family / Lamons / Sweet Grafix / Homer Township Fire Department / Local Labor Supporting STEM (UAW-Machinists) / The Chapin Family / The Ross Family / Solutions 4 Automation / Floyd Arbor of Gleaner Life Insurance Society  & Bullock Creek High School", 
        "locality": "Midland", 
        "nickname": "BlitzCreek", 
        "region": "Michigan", 
        "team_number": 3770, 
        "location": "Midland, Michigan, USA", 
        "key": "frc3770", 
        "country_name": "USA", 
        "motto": null, 
        "rookie_year": 2011
    }, 
    {
        "website": "http:///www.boyne.k12.mi.us/robotics", 
        "name": "BC Booster Foundation / Michigan Dept of Ed / The Bellant Family & Boyne City High School", 
        "locality": "Boyne City", 
        "nickname": "Boyne City Blaze", 
        "region": "Michigan", 
        "team_number": 4377, 
        "location": "Boyne City, Michigan, USA", 
        "key": "frc4377", 
        "country_name": "USA", 
        "motto": null, 
        "rookie_year": 2012
    }, 
    {
        "website": "http://www.TCSF-robotics.weebly.com", 
        "name": "Electro-Optics Technology, Inc.  / ATLAS space Operations, Inc. & St Francis High School", 
        "locality": "Traverse City", 
        "nickname": "Imprimis Deo", 
        "region": "Michigan", 
        "team_number": 4398, 
        "location": "Traverse City, Michigan, USA", 
        "key": "frc4398", 
        "country_name": "USA", 
        "motto": null, 
        "rookie_year": 2012
    }, 
    {
        "website": "https://www.facebook.com/MancelonaHSRobotics", 
        "name": "Mancelona High School", 
        "locality": "Mancelona", 
        "nickname": "IronBots", 
        "region": "Michigan", 
        "team_number": 4983, 
        "location": "Mancelona, Michigan, USA", 
        "key": "frc4983", 
        "country_name": "USA", 
        "motto": null, 
        "rookie_year": 2014
    }, 
    {
        "website": "http://www.firstinspires.org/", 
        "name": "Paradise Area Community Foundation / State of Michigan / Argosy / 2016 FRC\u00ae Hardship Grant & Whitefish Township School", 
        "locality": "Paradise", 
        "nickname": "Rockets", 
        "region": "Michigan", 
        "team_number": 4995, 
        "location": "Paradise, Michigan, USA", 
        "key": "frc4995", 
        "country_name": "USA", 
        "motto": null, 
        "rookie_year": 2014
    }, 
    {
        "website": "http://www.firstinspires.org/", 
        "name": "Dow / FIRST GLBR / Gemini Group / McDonalds Food and Family Center / Tower Automotive & Harbor Beach Community High School", 
        "locality": "Harbor Beach", 
        "nickname": "Pirates", 
        "region": "Michigan", 
        "team_number": 5017, 
        "location": "Harbor Beach, Michigan, USA", 
        "key": "frc5017", 
        "country_name": "USA", 
        "motto": null, 
        "rookie_year": 2014
    }, 
    {
        "website": "http://www.firstinspires.org/", 
        "name": "Laker High School", 
        "locality": "Pigeon", 
        "nickname": "Laker Robots", 
        "region": "Michigan", 
        "team_number": 5156, 
        "location": "Pigeon, Michigan, USA", 
        "key": "frc5156", 
        "country_name": "USA", 
        "motto": null, 
        "rookie_year": 2014
    }, 
    {
        "website": "http://www.firstinspires.org/", 
        "name": "Pickford High School", 
        "locality": "Pickford", 
        "nickname": "Robo Panthers", 
        "region": "Michigan", 
        "team_number": 5175, 
        "location": "Pickford, Michigan, USA",
        "key": "frc5175", 
        "country_name": "USA", 
        "motto": null, 
        "rookie_year": 2014
    }, 
    {
        "website": "http://www.firstinspires.org/", 
        "name": "Dow / Magline / Richardson / Sullivan's Exteriors & Standish-Sterling Central High School", 
        "locality": "Standish", 
        "nickname": "Panther Power", 
        "region": "Michigan", 
        "team_number": 5224, 
        "location": "Standish, Michigan, USA", 
        "key": "frc5224", 
        "country_name": "USA", 
        "motto": "Learn to Learn", 
        "rookie_year": 2014
    }, 
    {
        "website": "http://www.firstinspires.org/", 
        "name": "Academy West High School & Academy West Alternative High School", 
        "locality": "Flint", 
        "nickname": "Syn. Surgers", 
        "region": "Michigan", 
        "team_number": 5226, 
        "location": "Flint, Michigan, USA", 
        "key": "frc5226", 
        "country_name": "USA", 
        "motto": null, 
        "rookie_year": 2014
    }, 
    {
        "website": "https://www.facebook.com/HeritageHawkbots", 
        "name": "Dow Chemical  & Heritage High School", 
        "locality": "Saginaw", 
        "nickname": "Heritage Hawkbots", 
        "region": "Michigan", 
        "team_number": 5229, 
        "location": "Saginaw, Michigan, USA", 
        "key": "frc5229", 
        "country_name": "USA", 
        "motto": null, 
        "rookie_year": 2014
    }, 
    {
        "website": "http://www.firstinspires.org/", 
        "name": "The Zone/Judys Family Restaurant & East Jordan High School", 
        "locality": "East Jordan", 
        "nickname": "Red Devil Robotics", 
        "region": "Michigan", 
        "team_number": 5247, 
        "location": "East Jordan, Michigan, USA", 
        "key": "frc5247", 
        "country_name": "USA", 
        "motto": "Innovation in Action ", 
        "rookie_year": 2014
    }, 
    {
        "website": "http://www.robotics5316.org", 
        "name": "Impact Operations / Cascade Engineering / ADAC Automotive / Saranac Community Schools / Montcalm Community College & Saranac High School & Neighborhood Group & Lowell Senior High School & Lakewood High School & Home School", 
        "locality": "SARANAC", 
        "nickname": "The Architects", 
        "region": "Michigan", 
        "team_number": 5316, 
        "location": "SARANAC, Michigan, USA", 
        "key": "frc5316", 
        "country_name": "USA", 
        "motto": "Architecting the minds of future leaders", 
        "rookie_year": 2014
    }, 
    {
        "website": "http://www.firstinspires.org/", 
        "name": "Unionville-Sebewaing High School", 
        "locality": "Sebewaing", 
        "nickname": "Team Robotica", 
        "region": "Michigan", 
        "team_number": 5447, 
        "location": "Sebewaing, Michigan, USA", 
        "key": "frc5447", 
        "country_name": "USA", 
        "motto": null, 
        "rookie_year": 2015
    }, 
    {
        "website": "http://www.firstinspires.org/", 
        "name": "Crossroads Charter Academy (7-12)", 
        "locality": "Big Rapids", 
        "nickname": "Cosmic Chaos Automationeers", 
        "region": "Michigan", 
        "team_number": 5448, 
        "location": "Big Rapids, Michigan, USA", 
        "key": "frc5448", 
        "country_name": "USA", 
        "motto": null, 
        "rookie_year": 2015
    }, 
    {
        "website": "http://www.firstinspires.org/", 
        "name": "Pinconning High School", 
        "locality": "Pinconning", 
        "nickname": "The Loose Connections", 
        "region": "Michigan", 
        "team_number": 5504, 
        "location": "Pinconning, Michigan, USA", 
        "key": "frc5504", 
        "country_name": "USA", 
        "motto": null, 
        "rookie_year": 2015
    }, 
    {
        "website": "http://www.firstinspires.org/", 
        "name": "Kalitta Air / Havercroft Tool and Die / Northern Precision / Omni Metalcraft / Industrial Image Inc. & ALCONA COMMUNITY HIGH SCHOOL", 
        "locality": "Lincoln", 
        "nickname": "Tool Cats", 
        "region": "Michigan", 
        "team_number": 5525, 
        "location": "Lincoln, Michigan, USA", 
        "key": "frc5525", 
        "country_name": "USA", 
        "motto": null, 
        "rookie_year": 2015
    }, 
    {
        "website": "http://www.firstinspires.org/", 
        "name": "Moran Iron Works / Tom's Family Market / Onaway Custom Embroidery / Village Corner Store (Exxon Mobil) / FRC rookie grant (Bechtel, Argosy, UTC) / Onaway Area Schools / State of Mi FRC grant & Onaway Senior High School", 
        "locality": "Onaway", 
        "nickname": "Onaway Onabots", 
        "region": "Michigan", 
        "team_number": 5534, 
        "location": "Onaway, Michigan, USA", 
        "key": "frc5534", 
        "country_name": "USA", 
        "motto": null, 
        "rookie_year": 2015
    }, 
    {
        "website": "http://www.firstinspires.org/", 
        "name": "2015 FRC Rookie Grant & Hale High School", 
        "locality": "Hale", 
        "nickname": "The Talons", 
        "region": "Michigan", 
        "team_number": 5547, 
        "location": "Hale, Michigan, USA", 
        "key": "frc5547", 
        "country_name": "USA", 
        "motto": "All students will learn", 
        "rookie_year": 2015
    }, 
    {
        "website": "http://www.firstinspires.org/", 
        "name": "Central Lake Public School", 
        "locality": "Central Lake", 
        "nickname": "Central Lake Trobotics", 
        "region": "Michigan", 
        "team_number": 5560, 
        "location": "Central Lake, Michigan, USA", 
        "key": "frc5560", 
        "country_name": "USA", 
        "motto": null, 
        "rookie_year": 2015
    }, 
    {
        "website": "http://www.glenlakeschools.org/", 
        "name": "Maple City-Glen Lake Jr/Sr High School", 
        "locality": "Maple City", 
        "nickname": "Laker Logistics", 
        "region": "Michigan", 
        "team_number": 5562, 
        "location": "Maple City, Michigan, USA", 
        "key": "frc5562", 
        "country_name": "USA", 
        "motto": null, 
        "rookie_year": 2015
    }, 
    {
        "website": "http:///www,boynefallsshock.com", 
        "name": "Big E's  Smoke Shack / Whi-Ski Inn / Northwest Hydraulics & Engineering INC. / Meijer / Matelski Lumber / Truck & Trailer Specialties of Boyne Falls, Inc. / Art's Auto & Truck Parts Inc. / Valley Truck Parts / Traditional Truck Service / Zaremba Equipment Inc. / AIS Construction Equipment / Petoskey Plastics   & Boyne Falls Public School", 
        "locality": "Boyne Falls", 
        "nickname": "SHOCK", 
        "region": "Michigan", 
        "team_number": 5575, 
        "location": "Boyne Falls, Michigan, USA", 
        "key": "frc5575", 
        "country_name": "USA", 
        "motto": "Generation of Innovation", 
        "rookie_year": 2015
    }, 
    {
        "website": "http://www.firstinspires.org/", 
        "name": "Primary Electric/Wes-Corp Ind. & Whittemore-Prescott Area H.S.", 
        "locality": "Whittemore", 
        "nickname": "RoboCards", 
        "region": "Michigan", 
        "team_number": 5661, 
        "location": "Whittemore, Michigan, USA", 
        "key": "frc5661", 
        "country_name": "USA", 
        "motto": null, 
        "rookie_year": 2015
    }, 
    {
        "website": "http://www.firstinspires.org/", 
        "name": "The Midland Academy", 
        "locality": "Midland", 
        "nickname": "Eagles Crew", 
        "region": "Michigan", 
        "team_number": 5703, 
        "location": "Midland, Michigan, USA", 
        "key": "frc5703", 
        "country_name": "USA", 
        "motto": null, 
        "rookie_year": 2015
    }, 
    {
        "website": "http://team5712.org", 
        "name": "Nexteer/Kurek Tool Inc/Interpower/Dow Chemical Company/Michigan Department of Education & Hemlock High School", 
        "locality": "Hemlock", 
        "nickname": "Hemlock's Gray Matter", 
        "region": "Michigan", 
        "team_number": 5712, 
        "location": "Hemlock, Michigan, USA", 
        "key": "frc5712", 
        "country_name": "USA", 
        "motto": null, 
        "rookie_year": 2015
    }, 
    {
        "website": "http://www.firstinspires.org/", 
        "name": "Bay City Central High School & Bay City Central High School", 
        "locality": "Bay City", 
        "nickname": "Bot Central", 
        "region": "Michigan", 
        "team_number": 6071, 
        "location": "Bay City, Michigan, USA", 
        "key": "frc6071", 
        "country_name": "USA", 
        "motto": null, 
        "rookie_year": 2016
    }, 
    {
        "website": "http://www.firstinspires.org/", 
        "name": "Roscommon High School & Roscommon High School", 
        "locality": "Roscommon", 
        "nickname": "RoscoBots", 
        "region": "Michigan", 
        "team_number": 6074, 
        "location": "Roscommon, Michigan, USA", 
        "key": "frc6074", 
        "country_name": "USA", 
        "motto": null, 
        "rookie_year": 2016
    }, 
    {
        "website": "http://www.firstinspires.org/", 
        "name": "Beaver Island Community School", 
        "locality": "Beaver Island", 
        "nickname": "High School Islanders", 
        "region": "Michigan", 
        "team_number": 6098, 
        "location": "Beaver Island, Michigan, USA", 
        "key": "frc6098", 
        "country_name": "USA", 
        "motto": null, 
        "rookie_year": 2016
    }, 
    {
        "website": "http://www.firstinspires.org/", 
        "name": "Grayling High School", 
        "locality": "Grayling", 
        "nickname": "Grayling HS", 
        "region": "Michigan", 
        "team_number": 6121, 
        "location": "Grayling, Michigan, USA", 
        "key": "frc6121", 
        "country_name": "USA", 
        "motto": null, 
        "rookie_year": 2016
    }, 
    {
        "website": "http://www.firstinspires.org/", 
        "name": "First Robotics / Dow / Nexteer / Cambron Engineering / Bay City Morning Rotary Club & All Saints Central High School", 
        "locality": "Bay City", 
        "nickname": "The Legend of Robotics", 
        "region": "Michigan", 
        "team_number": 6193, 
        "location": "Bay City, Michigan, USA", 
        "key": "frc6193", 
        "country_name": "USA", 
        "motto": null, 
        "rookie_year": 2016
    }
]