[
    {
        "website": "http://www.hammerhead226.org/", 
        "name": "General Motors ME Vehicle Systems/Delphi Foundation/Gallagher-Kaiser Corporation/Troy Foundation for Educational Excellence & Athens High School & Troy High School", 
        "locality": "Troy", 
        "nickname": "Hammerheads", 
        "region": "Michigan", 
        "team_number": 226, 
        "location": "Troy, Michigan, USA", 
        "key": "frc226", 
        "country_name": "USA", 
        "motto": "Knowledge is power, but enthusiasm throws the switch!", 
        "rookie_year": 1999
    }, 
    {
        "website": "http:///www.team703.com", 
        "name": "Nexteer & Saginaw Career Complex", 
        "locality": "Saginaw", 
        "nickname": "Team Phoenix", 
        "region": "Michigan", 
        "team_number": 703, 
        "location": "Saginaw, Michigan, USA", 
        "key": "frc703", 
        "country_name": "USA", 
        "motto": "Ignite the Future", 
        "rookie_year": 2001
    },
    {
        "website": "http://www.firstinspires.org/", 
        "name": "General Motors/Grand Traverse Manufacturers' Golf Outing/Cone Drive Operations, Inc. & Tba Career Tech Center", 
        "locality": "Traverse City", 
        "nickname": "Concussive Engineers", 
        "region": "Michigan", 
        "team_number": 1896, 
        "location": "Traverse City, Michigan, USA", 
        "key": "frc1896", 
        "country_name": "USA", 
        "motto": null, 
        "rookie_year": 2006
    },
    {
        "website": "http:///www.the-charge.com", 
        "name": "The Dow Chemical Company / Nexteer / Dow Corning Corporation / FIRST of the Great Lakes Bay Region / Midland Public Schools / Michigan Baseball Foundation / Midland Steel & H.H. Dow High School", 
        "locality": "Midland", 
        "nickname": "The Charge", 
        "region": "Michigan", 
        "team_number": 2619, 
        "location": "Midland, Michigan, USA", 
        "key": "frc2619", 
        "country_name": "USA", 
        "motto": "Unleash Your Potential", 
        "rookie_year": 2008
    }, 
    {
        "website": "http://avondale.mi.schoolwebpages.com/education/club/club.php?sectiondetailid=19487&", 
        "name": "Plastics Engineering and Technical Services / The FCA Foundation & Avondale High School", 
        "locality": "Auburn Hills", 
        "nickname": "RoboJackets", 
        "region": "Michigan", 
        "team_number": 3538, 
        "location": "Auburn Hills, Michigan, USA", 
        "key": "frc3538", 
        "country_name": "USA", 
        "motto": null, 
        "rookie_year": 2011
    }, 
    {
        "website": "http://teampheonix3570.weebly.com/", 
        "name": "IAC-Alma / Gratiot Community Foundation / Anesthesia Associates / Garr Tool / Greater Gratiot  Development / Plasti-Paint, Inc / Alma Products / Agro-Culture Liquid Fertilizer & Alma Senior High School", 
        "locality": "Alma", 
        "nickname": "Pheonix", 
        "region": "Michigan", 
        "team_number": 3570, 
        "location": "Alma, Michigan, USA", 
        "key": "frc3570", 
        "country_name": "USA", 
        "motto": "Make it move", 
        "rookie_year": 2011
    }, 
    {
        "website": "http://www.petoskeypaladins.org", 
        "name": "Petoskey Harbor Springs Community Foundation / Noon Rotary / DTE Foundation / DCL / Bear River Electric / Circuit Controls Corp.  / Petoskey Plastics / Grannis Farley of Raymond James / Kilwins / Great Lakes Oral and Maxillofacial Surgery, P.C.  / Cosmetic Laser Surgery / Daifuku Webb & Petoskey High School", 
        "locality": "Petoskey", 
        "nickname": "Petoskey Paladins", 
        "region": "Michigan", 
        "team_number": 3618, 
        "location": "Petoskey, Michigan, USA", 
        "key": "frc3618", 
        "country_name": "USA", 
        "motto": "Engineering the Future ", 
        "rookie_year": 2011
    }, 
    {
        "website": "http:///www.creekrobotics.net", 
        "name": "FIRST-GLBR / Dow Chemical / The Kepler Family / Lamons / Sweet Grafix / Homer Township Fire Department / Local Labor Supporting STEM (UAW-Machinists) / The Chapin Family / The Ross Family / Solutions 4 Automation / Floyd Arbor of Gleaner Life Insurance Society  & Bullock Creek High School", 
        "locality": "Midland", 
        "nickname": "BlitzCreek", 
        "region": "Michigan", 
        "team_number": 3770, 
        "location": "Midland, Michigan, USA", 
        "key": "frc3770", 
        "country_name": "USA", 
        "motto": null, 
        "rookie_year": 2011
    }, 
    {
        "website": "http:///www.team4819.com", 
        "name": "Michael Engineering, Ltd./American Mitsuba/Mears/Isabella Bank/The UPS Store/Miller Shoes/Living Books Curriculum/Pleasant Graphics/Bills Custom Fab/Stanton Construction/Typesetting Plus/Mid Michigan Community Action Agency/Optimists International/Roy and Lavonne Balcom/Manitowoc - Delfield & Gratiot Isabella RESD  & Gratiot Isabella RESD", 
        "locality": "Mt. Pleasant", 
        "nickname": "Flat Mountain Mechanics", 
        "region": "Michigan", 
        "team_number": 4819, 
        "location": "Mt. Pleasant, Michigan, USA", 
        "key": "frc4819", 
        "country_name": "USA", 
        "motto": "COURAGE", 
        "rookie_year": 2013
    }, 
    {
        "website": "http://www.firstinspires.org/", 
        "name": "Cedarville High School/Kozma Welding and Fabrication/Carmeuse Lime and Stone/Les Cheneaux Club/Soo Coop Credit Union/2014 FRC Rookie Grant & Cedarville High School", 
        "locality": "Cedarville", 
        "nickname": "Yooper Troopers", 
        "region": "Michigan", 
        "team_number": 4988, 
        "location": "Cedarville, Michigan, USA", 
        "key": "frc4988", 
        "country_name": "USA", 
        "motto": null, 
        "rookie_year": 2014
    }, 
    {
        "website": "http:///www.fentonrobotics.com", 
        "name": "BorgWarner / Creative Foam / MasterCard / Michigan FRC Grant & Fenton Senior High School", 
        "locality": "Fenton", 
        "nickname": "Titanium Tigers", 
        "region": "Michigan", 
        "team_number": 5114, 
        "location": "Fenton, Michigan, USA", 
        "key": "frc5114", 
        "country_name": "USA", 
        "motto": null, 
        "rookie_year": 2014
    }, 
    {
        "website": "http:///www.freelandroboticsclub.com", 
        "name": "Nexteer Automotive & Freeland Middle School/High School", 
        "locality": "Freeland", 
        "nickname": "Fabricators", 
        "region": "Michigan", 
        "team_number": 5166, 
        "location": "Freeland, Michigan, USA", 
        "key": "frc5166", 
        "country_name": "USA", 
        "motto": null, 
        "rookie_year": 2014
    }, 
    {
        "website": "http://www.firstinspires.org/", 
        "name": "Saginaw Arts and Sciences Academy", 
        "locality": "Saginaw", 
        "nickname": "Pantheon", 
        "region": "Michigan", 
        "team_number": 5193, 
        "location": "Saginaw, Michigan, USA", 
        "key": "frc5193", 
        "country_name": "USA", 
        "motto": null, 
        "rookie_year": 2014
    }, 
    {
        "website": "http://www.firstinspires.org/", 
        "name": "Meridian High School", 
        "locality": "Sanford", 
        "nickname": "Volatile Chaos Inhibitors", 
        "region": "Michigan", 
        "team_number": 5203, 
        "location": "Sanford, Michigan, USA", 
        "key": "frc5203", 
        "country_name": "USA", 
        "motto": null, 
        "rookie_year": 2014
    }, 
    {
        "website": "http:///www.e-hps.net", 
        "name": "Bay Composite  / SC Johnson / Dow Chemical / Maier and Associates / MDE / Argosy Foundation / Garber Dealership / Interstate Battery / Larsen Graphics / Bay City Morning Rotary / Graff Chevrolet / BACF Youth Advisory Committee / Rowleys / Future Tech & Garber High School", 
        "locality": "Essexville", 
        "nickname": "E-Ville Empire", 
        "region": "Michigan", 
        "team_number": 5216, 
        "location": "Essexville, Michigan, USA", 
        "key": "frc5216", 
        "country_name": "USA", 
        "motto": null, 
        "rookie_year": 2014
    }, 
    {
        "website": "http://www.firstinspires.org/", 
        "name": "Great Lakes Bay Region Robotics & Arthur Hill High School", 
        "locality": "Saginaw", 
        "nickname": "JackBotics", 
        "region": "Michigan", 
        "team_number": 5222, 
        "location": "Saginaw, Michigan, USA", 
        "key": "frc5222", 
        "country_name": "USA", 
        "motto": null, 
        "rookie_year": 2014
    }, 
    {
        "website": "http://www.firstinspires.org/", 
        "name": "Dow / Magline / Richardson / Sullivan's Exteriors & Standish-Sterling Central High School", 
        "locality": "Standish", 
        "nickname": "Panther Power", 
        "region": "Michigan", 
        "team_number": 5224, 
        "location": "Standish, Michigan, USA", 
        "key": "frc5224", 
        "country_name": "USA", 
        "motto": "Learn to Learn", 
        "rookie_year": 2014
    }, 
    {
        "website": "https://www.facebook.com/HeritageHawkbots", 
        "name": "Dow Chemical  & Heritage High School", 
        "locality": "Saginaw", 
        "nickname": "Heritage Hawkbots", 
        "region": "Michigan", 
        "team_number": 5229, 
        "location": "Saginaw, Michigan, USA", 
        "key": "frc5229", 
        "country_name": "USA", 
        "motto": null, 
        "rookie_year": 2014
    }, 
    {
        "website": "http://5231rad.weebly.com/", 
        "name": "Shepherd Public Schools / Aircraft Precision Products (APPI) / Highland Plastics / WDS Enterprises, Inc. / Brink's Machine Company / MLT Transport, L.L.C / Pleasant Optics / JBS Contracting, Inc. & Shepherd  High School", 
        "locality": "Shepherd", 
        "nickname": "Radical Jays", 
        "region": "Michigan", 
        "team_number": 5231, 
        "location": "Shepherd, Michigan, USA", 
        "key": "frc5231", 
        "country_name": "USA", 
        "motto": "\"Duct Tape fixes most things others just call for a bigger hammer\"", 
        "rookie_year": 2014
    }, 
    {
        "website": "http://colemanschools.net/robotics", 
        "name": "Warren Masonic Lodge #427 / Coleman Lions Club / Huhtamaki / SPACE \u2013 Midland & Coleman Junion/Senior High School", 
        "locality": "Coleman", 
        "nickname": "CometKaze", 
        "region": "Michigan", 
        "team_number": 5257, 
        "location": "Coleman, Michigan, USA", 
        "key": "frc5257", 
        "country_name": "USA", 
        "motto": null, 
        "rookie_year": 2014
    }, 
    {
        "website": "http://www.firstinspires.org/", 
        "name": "Christian Home Educators / Awaken Leadership / FIRST GLBR / Northwood University / 2015 FRC Rookie Grant / Solidworks & Home School", 
        "locality": "Midland", 
        "nickname": "Rogue Robots", 
        "region": "Michigan", 
        "team_number": 5424, 
        "location": "Midland, Michigan, USA", 
        "key": "frc5424", 
        "country_name": "USA", 
        "motto": "Warranties were meant to be voided.", 
        "rookie_year": 2015
    }, 
    {
        "website": "http://www.firstinspires.org/", 
        "name": "Unionville-Sebewaing High School", 
        "locality": "Sebewaing", 
        "nickname": "Team Robotica", 
        "region": "Michigan", 
        "team_number": 5447, 
        "location": "Sebewaing, Michigan, USA", 
        "key": "frc5447", 
        "country_name": "USA", 
        "motto": null, 
        "rookie_year": 2015
    }, 
    {
        "website": "http://www.firstinspires.org/", 
        "name": "MDE & Caro High School", 
        "locality": "Caro", 
        "nickname": "Tiger Robotics", 
        "region": "Michigan", 
        "team_number": 5487, 
        "location": "Caro, Michigan, USA", 
        "key": "frc5487", 
        "country_name": "USA", 
        "motto": null, 
        "rookie_year": 2015
    }, 
    {
        "website": "http:///n/a", 
        "name": "MDE Grant / CPI Fluid Engineering / Dow Chemical / Midland High Programming Club & Midland High School", 
        "locality": "Midland", 
        "nickname": "Like a Boss.", 
        "region": "Michigan", 
        "team_number": 5509, 
        "location": "Midland, Michigan, USA", 
        "key": "frc5509", 
        "country_name": "USA", 
        "motto": "Like a Boss.", 
        "rookie_year": 2015
    }, 
    {
        "website": "http://svhsrobotics.weebly.com/", 
        "name": "Kuka Robotics/Hemlock Semi Conductor/Home Depot/Merrill Technologies Group/Dow Chemical/Gary Blower & Swan Valley High School", 
        "locality": "Saginaw", 
        "nickname": "Vikingbots", 
        "region": "Michigan", 
        "team_number": 5538, 
        "location": "Saginaw, Michigan, USA", 
        "key": "frc5538", 
        "country_name": "USA", 
        "motto": null, 
        "rookie_year": 2015
    }, 
    {
        "website": "http://www.firstinspires.org/", 
        "name": "EJ / Dayton Lamina / Armour Express / SMC / Mortensen Funeral Homer / Central Lake Public Schools & Central Lake Public School", 
        "locality": "Central Lake", 
        "nickname": "Central Lake Trobotics", 
        "region": "Michigan", 
        "team_number": 5560, 
        "location": "Central Lake, Michigan, USA", 
        "key": "frc5560", 
        "country_name": "USA", 
        "motto": null, 
        "rookie_year": 2015
    }, 
    {
        "website": "http://www.flushingschools.org/webpages/fhsrobotics/", 
        "name": "Esys Automation / 2015 FRC Rookie Grant / GMFIRST / Solidworks / Kettering University & Flushing High School", 
        "locality": "Flushing", 
        "nickname": "Raider Robotics", 
        "region": "Michigan", 
        "team_number": 5561, 
        "location": "Flushing, Michigan, USA", 
        "key": "frc5561", 
        "country_name": "USA", 
        "motto": null, 
        "rookie_year": 2015
    }, 
    {
        "website": "http:///www.whswebs.com/robotics", 
        "name": "Nexteer/Dow Corning & Bay City Western High School", 
        "locality": "Auburn", 
        "nickname": "Rise of the Warrior Bots", 
        "region": "Michigan", 
        "team_number": 5603, 
        "location": "Auburn, Michigan, USA", 
        "key": "frc5603", 
        "country_name": "USA", 
        "motto": null, 
        "rookie_year": 2015
    }, 
    {
        "website": "http:///Whittemorbotics.com", 
        "name": "Magliner / Roll-Rite Inc / Globe Sprinkler Systems / Three County Club & Whittemore-Prescott Area H.S.", 
        "locality": "Whittemore", 
        "nickname": "RoboCards", 
        "region": "Michigan", 
        "team_number": 5661, 
        "location": "Whittemore, Michigan, USA", 
        "key": "frc5661", 
        "country_name": "USA", 
        "motto": "Hard Wired for Victory", 
        "rookie_year": 2015
    }, 
    {
        "website": "http://www.firstinspires.org/", 
        "name": "The Midland Academy", 
        "locality": "Midland", 
        "nickname": "Eagles Crew", 
        "region": "Michigan", 
        "team_number": 5703, 
        "location": "Midland, Michigan, USA", 
        "key": "frc5703", 
        "country_name": "USA", 
        "motto": null, 
        "rookie_year": 2015
    }, 
    {
        "website": "http://team5712.org", 
        "name": "Kurek Tool Inc / Nexteer / Interpower / Dow Chemical Company / FIRST of the Great Lakes Bay Region / Michigan Department of Education & Hemlock High School", 
        "locality": "Hemlock", 
        "nickname": "Hemlock's Gray Matter", 
        "region": "Michigan", 
        "team_number": 5712, 
        "location": "Hemlock, Michigan, USA", 
        "key": "frc5712", 
        "country_name": "USA", 
        "motto": null, 
        "rookie_year": 2015
    }, 
    {
        "website": "http://www.firstinspires.org/", 
        "name": "Nexteer & Merrill High School", 
        "locality": "Merrill", 
        "nickname": "Circuits  of Destruction ", 
        "region": "Michigan", 
        "team_number": 5982, 
        "location": "Merrill, Michigan, USA", 
        "key": "frc5982", 
        "country_name": "USA", 
        "motto": null, 
        "rookie_year": 2016
    }, 
    {
        "website": "http://www.firstinspires.org/", 
        "name": "John Glenn High School", 
        "locality": "Bay City", 
        "nickname": "JGHS", 
        "region": "Michigan", 
        "team_number": 6020, 
        "location": "Bay City, Michigan, USA", 
        "key": "frc6020", 
        "country_name": "USA", 
        "motto": null, 
        "rookie_year": 2016
    }, 
    {
        "website": "http://www.firstinspires.org/", 
        "name": "Beal City High School", 
        "locality": "Mount Pleasant", 
        "nickname": "Gaget Agents", 
        "region": "Michigan", 
        "team_number": 6033, 
        "location": "Mount Pleasant, Michigan, USA", 
        "key": "frc6033", 
        "country_name": "USA", 
        "motto": null, 
        "rookie_year": 2016
    }, 
    {
        "website": "http://www.firstinspires.org/", 
        "name": "Mcbain High School", 
        "locality": "McBain", 
        "nickname": "Rambler Robotics", 
        "region": "Michigan", 
        "team_number": 6066, 
        "location": "McBain, Michigan, USA", 
        "key": "frc6066", 
        "country_name": "USA", 
        "motto": null, 
        "rookie_year": 2016
    }, 
    {
        "website": "http://www.firstinspires.org/", 
        "name": "St. Charles Community High School", 
        "locality": "St. Charles", 
        "nickname": "Underdogs", 
        "region": "Michigan", 
        "team_number": 6067, 
        "location": "St. Charles, Michigan, USA", 
        "key": "frc6067", 
        "country_name": "USA", 
        "motto": null, 
        "rookie_year": 2016
    }, 
    {
        "website": "http://www.firstinspires.org/", 
        "name": "Bay City Central High School & Bay City Central High School", 
        "locality": "Bay City", 
        "nickname": "Bot Central", 
        "region": "Michigan", 
        "team_number": 6071, 
        "location": "Bay City, Michigan, USA", 
        "key": "frc6071", 
        "country_name": "USA", 
        "motto": null, 
        "rookie_year": 2016
    }, 
    {
        "website": "http://www.carrolltonpublicschools.org/", 
        "name": "Buffalo Wild Wings / AndyMark FIRST Choice / Nexteer / Michigan Dept of Education / Carrollton Public School / Bob Felton / EngiNERDS Team 2337 / Argosy Foundation & Carrollton High School & Carrollton Middle School", 
        "locality": "Saginaw", 
        "nickname": "Cav-Bots", 
        "region": "Michigan", 
        "team_number": 6073, 
        "location": "Saginaw, Michigan, USA", 
        "key": "frc6073", 
        "country_name": "USA", 
        "motto": "Get it Done", 
        "rookie_year": 2016
    }, 
    {
        "website": "http://www.firstinspires.org/", 
        "name": "Montabella Junior/Senior High", 
        "locality": "Blanchard", 
        "nickname": "Mustangs", 
        "region": "Michigan", 
        "team_number": 6102, 
        "location": "Blanchard, Michigan, USA", 
        "key": "frc6102", 
        "country_name": "USA", 
        "motto": null, 
        "rookie_year": 2016
    }, 
    {
        "website": "http://www.frcasc.completeremote.com/", 
        "name": "FIRST in Michigan / Dow / Nexteer / Bay City Morning Rotary Club / Cambron Engineering & All Saints Central High School", 
        "locality": "Bay City", 
        "nickname": "The Legend of Robotics", 
        "region": "Michigan", 
        "team_number": 6193, 
        "location": "Bay City, Michigan, USA", 
        "key": "frc6193", 
        "country_name": "USA", 
        "motto": null, 
        "rookie_year": 2016
    }
]
